{"meta":{"code":200,"requestId":"57375f83498e68bd9fa4c156"},"response":{"venues":[{"id":"54879be6498e8454fab6d914","name":"Saddleback Complex","contact":{},"location":{"address":"712 Red Leaf Ct","lat":37.70903804289418,"lng":-122.42584644345114,"distance":296,"postalCode":"94014","cc":"US","city":"Daly City","state":"CA","country":"United States","formattedAddress":["712 Red Leaf Ct","Daly City, CA 94014","United States"]},"categories":[{"id":"4d954b06a243a5684965b473","name":"Residential Building (Apartment \/ Condo)","pluralName":"Residential Buildings (Apartments \/ Condos)","shortName":"Residential","icon":{"prefix":"https:\/\/ss3.4sqi.net\/img\/categories_v2\/building\/apartment_","suffix":".png"},"primary":true}],"verified":false,"stats":{"checkinsCount":44,"usersCount":5,"tipCount":0},"specials":{"count":0,"items":[]},"hereNow":{"count":0,"summary":"Nobody here","groups":[]},"referralId":"v-1463246724","venueChains":[]},{"id":"4fab2fa4e4b03a9d6ab57404","name":"Southern Hills","contact":{},"location":{"lat":37.71167231524122,"lng":-122.43239958297319,"distance":422,"postalCode":"94112","cc":"US","city":"San Francisco","state":"CA","country":"United States","formattedAddress":["San Francisco, CA 94112","United States"]},"categories":[{"id":"4f2a210c4b9023bd5841ed28","name":"Housing Development","pluralName":"Housing Developments","shortName":"Housing Development","icon":{"prefix":"https:\/\/ss3.4sqi.net\/img\/categories_v2\/building\/housingdevelopment_","suffix":".png"},"primary":true}],"verified":false,"stats":{"checkinsCount":226,"usersCount":35,"tipCount":0},"specials":{"count":0,"items":[]},"hereNow":{"count":0,"summary":"Nobody here","groups":[]},"referralId":"v-1463246724","venueChains":[]},{"id":"4c1ae0ec8b3aa593606f965f","name":"Up On Da Hill","contact":{},"location":{"lat":37.705786,"lng":-122.430891,"distance":371,"postalCode":"94014","cc":"US","city":"Daly City","state":"CA","country":"United States","formattedAddress":["Daly City, CA 94014","United States"]},"categories":[],"verified":false,"stats":{"checkinsCount":4,"usersCount":4,"tipCount":0},"specials":{"count":0,"items":[]},"hereNow":{"count":0,"summary":"Nobody here","groups":[]},"referralId":"v-1463246724","venueChains":[]},{"id":"50645547e4b0ea46e3cce85a","name":"KREAY HEFNER POWER-NAP AREA","contact":{},"location":{"address":"Geneva Ave.","crossStreet":"Prague","lat":37.712281,"lng":-122.430827,"distance":408,"postalCode":"94112","cc":"US","city":"San Francisco","state":"CA","country":"United States","formattedAddress":["Geneva Ave. (Prague)","San Francisco, CA 94112","United States"]},"categories":[{"id":"4d954b06a243a5684965b473","name":"Residential Building (Apartment \/ Condo)","pluralName":"Residential Buildings (Apartments \/ Condos)","shortName":"Residential","icon":{"prefix":"https:\/\/ss3.4sqi.net\/img\/categories_v2\/building\/apartment_","suffix":".png"},"primary":true}],"verified":false,"stats":{"checkinsCount":1,"usersCount":1,"tipCount":0},"specials":{"count":0,"items":[]},"hereNow":{"count":0,"summary":"Nobody here","groups":[]},"referralId":"v-1463246724","venueChains":[]},{"id":"53440657498e8fb9baec3493","name":"Long Shower Type Of Morning","contact":{},"location":{"lat":37.712272137764465,"lng":-122.43081248885697,"distance":407,"cc":"US","city":"San Francisco","state":"CA","country":"United States","formattedAddress":["San Francisco, CA","United States"]},"categories":[{"id":"4d954b06a243a5684965b473","name":"Residential Building (Apartment \/ Condo)","pluralName":"Residential Buildings (Apartments \/ Condos)","shortName":"Residential","icon":{"prefix":"https:\/\/ss3.4sqi.net\/img\/categories_v2\/building\/apartment_","suffix":".png"},"primary":true}],"verified":false,"stats":{"checkinsCount":10,"usersCount":1,"tipCount":0},"specials":{"count":0,"items":[]},"hereNow":{"count":0,"summary":"Nobody here","groups":[]},"referralId":"v-1463246724","venueChains":[]},{"id":"507e6341e4b007b0cc536ee2","name":"GUCCI WILDFOX STUDY AREA","contact":{},"location":{"address":"Geneva Ave.","crossStreet":"Prague","lat":37.712206,"lng":-122.43083,"distance":401,"postalCode":"94112","cc":"US","city":"San Francisco","state":"CA","country":"United States","formattedAddress":["Geneva Ave. (Prague)","San Francisco, CA 94112","United States"]},"categories":[{"id":"4d954b06a243a5684965b473","name":"Residential Building (Apartment \/ Condo)","pluralName":"Residential Buildings (Apartments \/ Condos)","shortName":"Residential","icon":{"prefix":"https:\/\/ss3.4sqi.net\/img\/categories_v2\/building\/apartment_","suffix":".png"},"primary":true}],"verified":false,"stats":{"checkinsCount":3,"usersCount":1,"tipCount":0},"specials":{"count":0,"items":[]},"hereNow":{"count":0,"summary":"Nobody here","groups":[]},"referralId":"v-1463246724","venueChains":[]},{"id":"4f2ca18ce4b094acc3e88658","name":"Green House Labs","contact":{},"location":{"lat":37.709102,"lng":-122.430966,"distance":158,"postalCode":"94112","cc":"US","city":"San Francisco","state":"CA","country":"United States","formattedAddress":["San Francisco, CA 94112","United States"]},"categories":[],"verified":false,"stats":{"checkinsCount":12,"usersCount":3,"tipCount":0},"specials":{"count":0,"items":[]},"hereNow":{"count":0,"summary":"Nobody here","groups":[]},"referralId":"v-1463246724","venueChains":[]},{"id":"500bd17ee4b053e657e4ea92","name":"High Point Luxury Condominiums","contact":{"twitter":"www.highpointsf.com"},"location":{"address":"1888 Geneva Ave","crossStreet":"Carter St","lat":37.70930308932456,"lng":-122.42493947881945,"distance":378,"postalCode":"94134","cc":"US","city":"San Francisco","state":"CA","country":"United States","formattedAddress":["1888 Geneva Ave (Carter St)","San Francisco, CA 94134","United States"]},"categories":[{"id":"4d954b06a243a5684965b473","name":"Residential Building (Apartment \/ Condo)","pluralName":"Residential Buildings (Apartments \/ Condos)","shortName":"Residential","icon":{"prefix":"https:\/\/ss3.4sqi.net\/img\/categories_v2\/building\/apartment_","suffix":".png"},"primary":true}],"verified":false,"stats":{"checkinsCount":10,"usersCount":6,"tipCount":1},"specials":{"count":0,"items":[]},"hereNow":{"count":0,"summary":"Nobody here","groups":[]},"referralId":"v-1463246724","venueChains":[]},{"id":"5080f979e4b01d45a0d822e3","name":"GUCCI WILDFOX DOLL UP & MAKEUP AREA","contact":{},"location":{"address":"Geneva Ave.","crossStreet":"Prague","lat":37.712322,"lng":-122.430959,"distance":417,"postalCode":"94112","cc":"US","city":"San Francisco","state":"CA","country":"United States","formattedAddress":["Geneva Ave. (Prague)","San Francisco, CA 94112","United States"]},"categories":[{"id":"4d954b06a243a5684965b473","name":"Residential Building (Apartment \/ Condo)","pluralName":"Residential Buildings (Apartments \/ Condos)","shortName":"Residential","icon":{"prefix":"https:\/\/ss3.4sqi.net\/img\/categories_v2\/building\/apartment_","suffix":".png"},"primary":true}],"verified":false,"stats":{"checkinsCount":2,"usersCount":1,"tipCount":0},"specials":{"count":0,"items":[]},"hereNow":{"count":0,"summary":"Nobody here","groups":[]},"referralId":"v-1463246724","venueChains":[]},{"id":"4c550dbb06901b8ddd20cc4c","name":"SCII Orphanage","contact":{},"location":{"address":"Battlenet","lat":37.70611,"lng":-122.42797,"distance":322,"cc":"US","city":"Daly City","state":"CA","country":"United States","formattedAddress":["Battlenet","Daly City, CA","United States"]},"categories":[],"verified":false,"stats":{"checkinsCount":2,"usersCount":1,"tipCount":0},"specials":{"count":0,"items":[]},"hereNow":{"count":0,"summary":"Nobody here","groups":[]},"referralId":"v-1463246724","venueChains":[]},{"id":"4f10ce99e4b038020201f1ef","name":"Master Kiet Wong Chiropractor","contact":{},"location":{"address":"1039 Taraval St","crossStreet":"btwn 20th & 21st","lat":37.71040063613511,"lng":-122.42433667481998,"distance":462,"postalCode":"94116","cc":"US","city":"San Francisco","state":"CA","country":"United States","formattedAddress":["1039 Taraval St (btwn 20th & 21st)","San Francisco, CA 94116","United States"]},"categories":[{"id":"52e81612bcbc57f1066b7a3a","name":"Chiropractor","pluralName":"Chiropractors","shortName":"Chiropractors","icon":{"prefix":"https:\/\/ss3.4sqi.net\/img\/categories_v2\/building\/medical_doctorsoffice_","suffix":".png"},"primary":true}],"verified":false,"stats":{"checkinsCount":1,"usersCount":1,"tipCount":0},"specials":{"count":0,"items":[]},"hereNow":{"count":0,"summary":"Nobody here","groups":[]},"referralId":"v-1463246724","venueChains":[]},{"id":"5090a03ce4b095c5d7fdf6ec","name":"VERSACE COCAINE STUDY AREA","contact":{},"location":{"address":"Geneva Ave.","crossStreet":"Prague","lat":37.712329,"lng":-122.430747,"distance":411,"postalCode":"94112","cc":"US","city":"San Francisco","state":"CA","country":"United States","formattedAddress":["Geneva Ave. (Prague)","San Francisco, CA 94112","United States"]},"categories":[{"id":"4d954b06a243a5684965b473","name":"Residential Building (Apartment \/ Condo)","pluralName":"Residential Buildings (Apartments \/ Condos)","shortName":"Residential","icon":{"prefix":"https:\/\/ss3.4sqi.net\/img\/categories_v2\/building\/apartment_","suffix":".png"},"primary":true}],"verified":false,"stats":{"checkinsCount":2,"usersCount":1,"tipCount":0},"specials":{"count":0,"items":[]},"hereNow":{"count":0,"summary":"Nobody here","groups":[]},"referralId":"v-1463246724","venueChains":[]},{"id":"4e472fe0183849317e81fe46","name":"El Carretero","contact":{},"location":{"address":"Birchwood CT","lat":37.708289,"lng":-122.425663,"distance":317,"postalCode":"94134","cc":"US","city":"San Francisco","state":"CA","country":"United States","formattedAddress":["Birchwood CT","San Francisco, CA 94134","United States"]},"categories":[{"id":"4d954b06a243a5684965b473","name":"Residential Building (Apartment \/ Condo)","pluralName":"Residential Buildings (Apartments \/ Condos)","shortName":"Residential","icon":{"prefix":"https:\/\/ss3.4sqi.net\/img\/categories_v2\/building\/apartment_","suffix":".png"},"primary":true}],"verified":false,"stats":{"checkinsCount":161,"usersCount":4,"tipCount":0},"specials":{"count":0,"items":[]},"hereNow":{"count":0,"summary":"Nobody here","groups":[]},"referralId":"v-1463246724","venueChains":[]},{"id":"50bdb3f8e4b00766750a4b08","name":"The Magic Cabin","contact":{},"location":{"lat":37.708085,"lng":-122.427133,"distance":200,"postalCode":"94014","cc":"US","city":"Daly City","state":"CA","country":"United States","formattedAddress":["Daly City, CA 94014","United States"]},"categories":[{"id":"4d954b06a243a5684965b473","name":"Residential Building (Apartment \/ Condo)","pluralName":"Residential Buildings (Apartments \/ Condos)","shortName":"Residential","icon":{"prefix":"https:\/\/ss3.4sqi.net\/img\/categories_v2\/building\/apartment_","suffix":".png"},"primary":true}],"verified":false,"stats":{"checkinsCount":1,"usersCount":1,"tipCount":0},"specials":{"count":0,"items":[]},"hereNow":{"count":0,"summary":"Nobody here","groups":[]},"referralId":"v-1463246724","venueChains":[]},{"id":"4dfa282cd164bbe5461604fb","name":"Highpoint Condominiums","contact":{},"location":{"address":"Stoneridge Lane","crossStreet":"Geneva","lat":37.71065,"lng":-122.426423,"distance":316,"cc":"US","city":"San Francisco","state":"CA","country":"United States","formattedAddress":["Stoneridge Lane (Geneva)","San Francisco, CA","United States"]},"categories":[{"id":"4d954b06a243a5684965b473","name":"Residential Building (Apartment \/ Condo)","pluralName":"Residential Buildings (Apartments \/ Condos)","shortName":"Residential","icon":{"prefix":"https:\/\/ss3.4sqi.net\/img\/categories_v2\/building\/apartment_","suffix":".png"},"primary":true}],"verified":false,"stats":{"checkinsCount":19,"usersCount":11,"tipCount":0},"specials":{"count":0,"items":[]},"hereNow":{"count":0,"summary":"Nobody here","groups":[]},"referralId":"v-1463246724","venueChains":[]},{"id":"4c1ae4478b3aa5935275965f","name":"Alta Vista","contact":{},"location":{"lat":37.70522309293699,"lng":-122.4308014288834,"distance":426,"postalCode":"94014","cc":"US","city":"Daly City","state":"CA","country":"United States","formattedAddress":["Daly City, CA 94014","United States"]},"categories":[{"id":"4bf58dd8d48988d165941735","name":"Scenic Lookout","pluralName":"Scenic Lookouts","shortName":"Scenic Lookout","icon":{"prefix":"https:\/\/ss3.4sqi.net\/img\/categories_v2\/parks_outdoors\/sceniclookout_","suffix":".png"},"primary":true}],"verified":false,"stats":{"checkinsCount":12,"usersCount":10,"tipCount":0},"specials":{"count":0,"items":[]},"hereNow":{"count":0,"summary":"Nobody here","groups":[]},"referralId":"v-1463246724","venueChains":[]},{"id":"4e6e8f1bd164e01c45df8827","name":"The Slorehousw","contact":{},"location":{"lat":37.711722,"lng":-122.43107,"distance":360,"cc":"US","city":"San Francisco","state":"CA","country":"United States","formattedAddress":["San Francisco, CA","United States"]},"categories":[{"id":"4bf58dd8d48988d1d6941735","name":"Strip Club","pluralName":"Strip Clubs","shortName":"Strip Club","icon":{"prefix":"https:\/\/ss3.4sqi.net\/img\/categories_v2\/nightlife\/stripclub_","suffix":".png"},"primary":true}],"verified":false,"stats":{"checkinsCount":1,"usersCount":1,"tipCount":0},"allowMenuUrlEdit":true,"specials":{"count":0,"items":[]},"hereNow":{"count":0,"summary":"Nobody here","groups":[]},"referralId":"v-1463246724","venueChains":[]},{"id":"4f02a0c46c25c5ce83ddf73e","name":"POCAHONTASNMOCASSINS Nightly Preparations","contact":{},"location":{"address":"1556 Geneva Ave","lat":37.712459,"lng":-122.430862,"distance":428,"postalCode":"94112","cc":"US","city":"San Francisco","state":"CA","country":"United States","formattedAddress":["1556 Geneva Ave","San Francisco, CA 94112","United States"]},"categories":[{"id":"4d954b06a243a5684965b473","name":"Residential Building (Apartment \/ Condo)","pluralName":"Residential Buildings (Apartments \/ Condos)","shortName":"Residential","icon":{"prefix":"https:\/\/ss3.4sqi.net\/img\/categories_v2\/building\/apartment_","suffix":".png"},"primary":true}],"verified":false,"stats":{"checkinsCount":1,"usersCount":1,"tipCount":0},"specials":{"count":0,"items":[]},"hereNow":{"count":0,"summary":"Nobody here","groups":[]},"referralId":"v-1463246724","venueChains":[]},{"id":"507cfec3e4b0ee83399348be","name":"MARCJACOBSDOT STUDY AREA","contact":{},"location":{"address":"Geneva Ave.","crossStreet":"Prague","lat":37.712219,"lng":-122.430821,"distance":402,"postalCode":"94112","cc":"US","city":"San Francisco","state":"CA","country":"United States","formattedAddress":["Geneva Ave. (Prague)","San Francisco, CA 94112","United States"]},"categories":[{"id":"4d954b06a243a5684965b473","name":"Residential Building (Apartment \/ Condo)","pluralName":"Residential Buildings (Apartments \/ Condos)","shortName":"Residential","icon":{"prefix":"https:\/\/ss3.4sqi.net\/img\/categories_v2\/building\/apartment_","suffix":".png"},"primary":true}],"verified":false,"stats":{"checkinsCount":1,"usersCount":1,"tipCount":0},"specials":{"count":0,"items":[]},"hereNow":{"count":0,"summary":"Nobody here","groups":[]},"referralId":"v-1463246724","venueChains":[]},{"id":"4e460e98e4cd9d94fb1db192","name":"Highpoint Complex","contact":{},"location":{"address":"1888 Geneva Ave","crossStreet":"Carter","lat":37.70982866826664,"lng":-122.42465190303139,"distance":415,"postalCode":"94134","cc":"US","city":"San Francisco","state":"CA","country":"United States","formattedAddress":["1888 Geneva Ave (Carter)","San Francisco, CA 94134","United States"]},"categories":[{"id":"4d954b06a243a5684965b473","name":"Residential Building (Apartment \/ Condo)","pluralName":"Residential Buildings (Apartments \/ Condos)","shortName":"Residential","icon":{"prefix":"https:\/\/ss3.4sqi.net\/img\/categories_v2\/building\/apartment_","suffix":".png"},"primary":true}],"verified":false,"stats":{"checkinsCount":346,"usersCount":36,"tipCount":1},"specials":{"count":0,"items":[]},"hereNow":{"count":0,"summary":"Nobody here","groups":[]},"referralId":"v-1463246724","venueChains":[]},{"id":"5197c491498e42d10e6b259a","name":"cuvasion","contact":{},"location":{"lat":37.705814361572266,"lng":-122.43363952636719,"distance":516,"cc":"US","city":"Daly City","state":"CA","country":"United States","formattedAddress":["Daly City, CA","United States"]},"categories":[{"id":"4bf58dd8d48988d14b941735","name":"Winery","pluralName":"Wineries","shortName":"Winery","icon":{"prefix":"https:\/\/ss3.4sqi.net\/img\/categories_v2\/food\/winery_","suffix":".png"},"primary":true}],"verified":false,"stats":{"checkinsCount":2,"usersCount":2,"tipCount":0},"allowMenuUrlEdit":true,"specials":{"count":0,"items":[]},"hereNow":{"count":0,"summary":"Nobody here","groups":[]},"referralId":"v-1463246724","venueChains":[]},{"id":"4d6cfaf521acf04de16c493a","name":"Bootcamp","contact":{},"location":{"lat":37.71068722672918,"lng":-122.42641605747465,"distance":319,"cc":"US","city":"San Francisco","state":"CA","country":"United States","formattedAddress":["San Francisco, CA","United States"]},"categories":[{"id":"4bf58dd8d48988d175941735","name":"Gym \/ Fitness Center","pluralName":"Gyms or Fitness Centers","shortName":"Gym \/ Fitness","icon":{"prefix":"https:\/\/ss3.4sqi.net\/img\/categories_v2\/building\/gym_","suffix":".png"},"primary":true}],"verified":false,"stats":{"checkinsCount":4,"usersCount":2,"tipCount":0},"allowMenuUrlEdit":true,"specials":{"count":0,"items":[]},"hereNow":{"count":0,"summary":"Nobody here","groups":[]},"referralId":"v-1463246724","venueChains":[]},{"id":"51bf4b53498e6935fbc79daf","name":"Versacecocaine Golden Thrown","contact":{},"location":{"lat":37.712235,"lng":-122.430817,"distance":403,"cc":"US","city":"San Francisco","state":"CA","country":"United States","formattedAddress":["San Francisco, CA","United States"]},"categories":[{"id":"4d954b06a243a5684965b473","name":"Residential Building (Apartment \/ Condo)","pluralName":"Residential Buildings (Apartments \/ Condos)","shortName":"Residential","icon":{"prefix":"https:\/\/ss3.4sqi.net\/img\/categories_v2\/building\/apartment_","suffix":".png"},"primary":true}],"verified":false,"stats":{"checkinsCount":15,"usersCount":3,"tipCount":0},"specials":{"count":0,"items":[]},"hereNow":{"count":0,"summary":"Nobody here","groups":[]},"referralId":"v-1463246724","venueChains":[]},{"id":"50761133e4b0aeeb7ea5111d","name":"KREAY HEFNER THROWN","contact":{},"location":{"address":"Geneva Ave.","crossStreet":"Prague","lat":37.712152,"lng":-122.430794,"distance":394,"postalCode":"94112","cc":"US","city":"San Francisco","state":"CA","country":"United States","formattedAddress":["Geneva Ave. (Prague)","San Francisco, CA 94112","United States"]},"categories":[{"id":"4d954b06a243a5684965b473","name":"Residential Building (Apartment \/ Condo)","pluralName":"Residential Buildings (Apartments \/ Condos)","shortName":"Residential","icon":{"prefix":"https:\/\/ss3.4sqi.net\/img\/categories_v2\/building\/apartment_","suffix":".png"},"primary":true}],"verified":false,"stats":{"checkinsCount":1,"usersCount":1,"tipCount":0},"specials":{"count":0,"items":[]},"hereNow":{"count":0,"summary":"Nobody here","groups":[]},"referralId":"v-1463246724","venueChains":[]},{"id":"508ce880e4b0f38c014badd5","name":"VERSACE COCAINE THROWN","contact":{},"location":{"address":"Geneva Ave.","crossStreet":"Prague","lat":37.7122435249724,"lng":-122.43086778870735,"distance":406,"postalCode":"94112","cc":"US","city":"San Francisco","state":"CA","country":"United States","formattedAddress":["Geneva Ave. (Prague)","San Francisco, CA 94112","United States"]},"categories":[{"id":"4d954b06a243a5684965b473","name":"Residential Building (Apartment \/ Condo)","pluralName":"Residential Buildings (Apartments \/ Condos)","shortName":"Residential","icon":{"prefix":"https:\/\/ss3.4sqi.net\/img\/categories_v2\/building\/apartment_","suffix":".png"},"primary":true}],"verified":false,"stats":{"checkinsCount":34,"usersCount":2,"tipCount":0},"specials":{"count":0,"items":[]},"hereNow":{"count":0,"summary":"Nobody here","groups":[]},"referralId":"v-1463246724","venueChains":[]},{"id":"4c69596b2c29d13a26ed0a41","name":"Guadalupe School","contact":{},"location":{"lat":37.71017,"lng":-122.433707,"distance":423,"postalCode":"94112","cc":"US","city":"San Francisco","state":"CA","country":"United States","formattedAddress":["San Francisco, CA 94112","United States"]},"categories":[{"id":"4bf58dd8d48988d13b941735","name":"School","pluralName":"Schools","shortName":"School","icon":{"prefix":"https:\/\/ss3.4sqi.net\/img\/categories_v2\/building\/school_","suffix":".png"},"primary":true}],"verified":false,"stats":{"checkinsCount":41,"usersCount":13,"tipCount":0},"specials":{"count":0,"items":[]},"hereNow":{"count":0,"summary":"Nobody here","groups":[]},"referralId":"v-1463246724","venueChains":[]},{"id":"533eb422498e774b82698ae1","name":"It's Pouring Down Raining","contact":{},"location":{"lat":37.712436745797014,"lng":-122.4308014288834,"distance":424,"cc":"US","city":"San Francisco","state":"CA","country":"United States","formattedAddress":["San Francisco, CA","United States"]},"categories":[{"id":"4bf58dd8d48988d162941735","name":"Other Great Outdoors","pluralName":"Other Great Outdoors","shortName":"Other Outdoors","icon":{"prefix":"https:\/\/ss3.4sqi.net\/img\/categories_v2\/parks_outdoors\/outdoors_","suffix":".png"},"primary":true}],"verified":false,"stats":{"checkinsCount":2,"usersCount":2,"tipCount":0},"specials":{"count":0,"items":[]},"hereNow":{"count":0,"summary":"Nobody here","groups":[]},"referralId":"v-1463246724","venueChains":[]},{"id":"4fdda683e4b0dd796bd4a7b1","name":"IMJUICYCOUTURED KITCHEN AREA","contact":{},"location":{"address":"Geneva Ave.","crossStreet":"Prague","lat":37.712239,"lng":-122.430832,"distance":404,"postalCode":"94112","cc":"US","city":"San Francisco","state":"CA","country":"United States","formattedAddress":["Geneva Ave. (Prague)","San Francisco, CA 94112","United States"]},"categories":[{"id":"4d954b06a243a5684965b473","name":"Residential Building (Apartment \/ Condo)","pluralName":"Residential Buildings (Apartments \/ Condos)","shortName":"Residential","icon":{"prefix":"https:\/\/ss3.4sqi.net\/img\/categories_v2\/building\/apartment_","suffix":".png"},"primary":true}],"verified":false,"stats":{"checkinsCount":1,"usersCount":1,"tipCount":0},"specials":{"count":0,"items":[]},"hereNow":{"count":0,"summary":"Nobody here","groups":[]},"referralId":"v-1463246724","venueChains":[]},{"id":"4ff60c35e4b042cc29daf678","name":"Laundry Room","contact":{},"location":{"address":"Geneva Ave.","crossStreet":"Prague","lat":37.712243,"lng":-122.430878,"distance":406,"postalCode":"94112","cc":"US","city":"San Francisco","state":"CA","country":"United States","formattedAddress":["Geneva Ave. (Prague)","San Francisco, CA 94112","United States"]},"categories":[{"id":"4d954b06a243a5684965b473","name":"Residential Building (Apartment \/ Condo)","pluralName":"Residential Buildings (Apartments \/ Condos)","shortName":"Residential","icon":{"prefix":"https:\/\/ss3.4sqi.net\/img\/categories_v2\/building\/apartment_","suffix":".png"},"primary":true}],"verified":false,"stats":{"checkinsCount":8,"usersCount":1,"tipCount":0},"specials":{"count":0,"items":[]},"hereNow":{"count":0,"summary":"Nobody here","groups":[]},"referralId":"v-1463246724","venueChains":[]},{"id":"5387a7e7498e0c921f966994","name":"Kitchen Of Mine","contact":{},"location":{"lat":37.712223,"lng":-122.430662,"distance":397,"cc":"US","city":"San Francisco","state":"CA","country":"United States","formattedAddress":["San Francisco, CA","United States"]},"categories":[{"id":"4d954b06a243a5684965b473","name":"Residential Building (Apartment \/ Condo)","pluralName":"Residential Buildings (Apartments \/ Condos)","shortName":"Residential","icon":{"prefix":"https:\/\/ss3.4sqi.net\/img\/categories_v2\/building\/apartment_","suffix":".png"},"primary":true}],"verified":false,"stats":{"checkinsCount":10,"usersCount":2,"tipCount":0},"specials":{"count":0,"items":[]},"hereNow":{"count":0,"summary":"Nobody here","groups":[]},"referralId":"v-1463246724","venueChains":[]}],"confident":true}}